{"type":"FeatureCollection","features":[{"type":"Feature","properties":{"type":"drawing-graphic","New_Property_Name":"維港1號 (One Victoria)","Total_No_Of_Units":1059,"No_Of_Units_Sold":508,"First_Sales_Date":"03/07/2021","Avg_Unit_Rate":25210,"Date_Of_Information":"01/10/2021","Address":"啟德承豐道21號","Status":"出售中","Developer":"中國海外"},"geometry":{"type":"Point","coordinates":[114.20708357941807,22.313388213405396]}},{"type":"Feature","properties":{"type":"drawing-graphic","New_Property_Name":"VAU Residence","Total_No_Of_Units":165,"No_Of_Units_Sold":56,"First_Sales_Date":"19/06/2021","Avg_Unit_Rate":25526,"Date_Of_Information":"21/07/2021","Address":"何文田自由道11號","Status":"出售中","Developer":"萬科香港"},"geometry":{"type":"Point","coordinates":[114.1744949425607,22.319051453520053]}},{"type":"Feature","properties":{"type":"drawing-graphic","New_Property_Name":"逸南 (The Upper South)","Total_No_Of_Units":138,"No_Of_Units_Sold":70,"First_Sales_Date":"30/05/2021","Avg_Unit_Rate":25797,"Date_Of_Information":"01/10/2021","Address":"香港仔鴨脷洲大街71號","Status":"出售中","Developer":"恒基兆業"},"geometry":{"type":"Point","coordinates":[114.15570334470507,22.243914116978377]}},{"type":"Feature","properties":{"New_Property_Name":"The Henley I","type":"drawing-graphic","Total_No_Of_Units":479,"No_Of_Units_Sold":362,"First_Sales_Date":"09/05/2021","Avg_Unit_Rate":27764,"Date_Of_Information":"01/10/2021","Address":"啟德沐泰街7號","Status":"出售中","Developer":"恒基兆業"},"geometry":{"type":"Point","coordinates":[114.19836234301329,22.32701937128671]}},{"type":"Feature","properties":{"type":"drawing-graphic","New_Property_Name":"利．晴灣23 (L．Living 23)","Total_No_Of_Units":142,"No_Of_Units_Sold":108,"First_Sales_Date":"16/05/2021","Avg_Unit_Rate":20173,"Date_Of_Information":"21/07/2021","Address":"旺角杉樹街23號及橡樹街87號","Status":"出售中","Developer":"有利集團 / 市建局"},"geometry":{"type":"Point","coordinates":[114.16382923722267,22.32068491381918]}},{"type":"Feature","properties":{"type":"drawing-graphic","New_Property_Name":"柏傲莊 III (The Pavilia Farm III)","Total_No_Of_Units":892,"No_Of_Units_Sold":868,"First_Sales_Date":"05/06/2021","Avg_Unit_Rate":22824,"Date_Of_Information":"01/10/2021","Address":"沙田車公廟路18號","Status":"出售中","Developer":"新世界 / 港鐵"},"geometry":{"type":"Point","coordinates":[114.18032079935074,22.373843992964236]}},{"type":"Feature","properties":{"Avg_Unit_Rate":23687,"type":"drawing-graphic","New_Property_Name":"千望 (Uptify)","Address":"旺角煙廠街31號","First_Sales_Date":"08/05/2021","Date_Of_Information":"25/07/2021","Total_No_Of_Units":83,"No_Of_Units_Sold":52,"Status":"出售中","Developer":"遠洋集團"},"geometry":{"type":"Point","coordinates":[114.17258128523827,22.31668975290655]}},{"type":"Feature","properties":{"type":"drawing-graphic","New_Property_Name":"One Soho","Total_No_Of_Units":322,"No_Of_Units_Sold":157,"First_Sales_Date":"02/05/2021","Avg_Unit_Rate":23629,"Date_Of_Information":"02/10/2021","Address":"旺角山東街32B號","Status":"出售中","Developer":"信和置業 / 莊士集團 / 市建局"},"geometry":{"type":"Point","coordinates":[114.16798532009125,22.316706191579502]}},{"type":"Feature","properties":{"Address":"香港仔香葉道11號","Status":"出售中","Date_Of_Information":"02/10/2021","First_Sales_Date":"01/05/2021","Avg_Unit_Rate":33214,"type":"drawing-graphic","New_Property_Name":"港島南岸 晉環 (Southland)","Total_No_Of_Units":800,"No_Of_Units_Sold":617,"Developer":"路勁地產 / 平安不動產 / 港鐵"},"geometry":{"type":"Point","coordinates":[114.16793435811995,22.246023120940137]}},{"type":"Feature","properties":{"First_Sales_Date":"04/09/2021","Avg_Unit_Rate":33682,"Date_Of_Information":"02/10/2021","Address":"香港仔香葉道11號","Status":"出售中","New_Property_Name":"港島南岸 揚海 (La Marina)","Total_No_Of_Units":600,"No_Of_Units_Sold":191,"type":"drawing-graphic","Developer":"路勁地產 / 平安不動產 / 港鐵"},"geometry":{"type":"Point","coordinates":[114.16702508926392,22.246184487479294]}},{"type":"Feature","properties":{"type":"drawing-graphic","New_Property_Name":"御海灣 II (Regency Bay II)","Total_No_Of_Units":406,"No_Of_Units_Sold":288,"First_Sales_Date":"24/04/2021","Avg_Unit_Rate":19829,"Date_Of_Information":"02/10/2021","Address":"屯門海皇路23號","Status":"出售中","Developer":"新鴻基"},"geometry":{"type":"Point","coordinates":[113.97077724337578,22.38092380654104]}},{"type":"Feature","properties":{"type":"drawing-graphic","New_Property_Name":"瓏珀山第1期 (St Michel Phase 1)","Total_No_Of_Units":196,"No_Of_Units_Sold":75,"First_Sales_Date":"16/04/2021","Avg_Unit_Rate":20467,"Date_Of_Information":"02/10/2021","Address":"沙田多石街33號","Status":"出售中","Developer":"新鴻基"},"geometry":{"type":"Point","coordinates":[114.20079544186592,22.375407808316474]}},{"type":"Feature","properties":{"type":"drawing-graphic","New_Property_Name":"維港滙 III (Grand Victoria III)","Total_No_Of_Units":388,"No_Of_Units_Sold":106,"First_Sales_Date":"04/04/2021","Avg_Unit_Rate":27566,"Date_Of_Information":"02/10/2021","Address":"西南九龍荔盈街6號及荔盈街8號","Status":"出售中","Developer":"會德豐 / 信和置業 / 嘉華國際 / 世茂 / 爪哇集團"},"geometry":{"type":"Point","coordinates":[114.14893627166748,22.32682212166132]}},{"type":"Feature","properties":{"type":"drawing-graphic","New_Property_Name":"維港滙 I (Grand Victoria I)","Total_No_Of_Units":524,"No_Of_Units_Sold":357,"First_Sales_Date":"13/03/2021","Avg_Unit_Rate":26807,"Date_Of_Information":"02/10/2021","Address":"西南九龍荔盈街6號及荔盈街8號","Status":"出售中","Developer":"會德豐 / 信和置業 / 嘉華國際 / 世茂 / 爪哇集團"},"geometry":{"type":"Point","coordinates":[114.14748519659042,22.32780216422038]}},{"type":"Feature","properties":{"First_Sales_Date":"03/04/2021","type":"drawing-graphic","New_Property_Name":"尚瓏 (The Queens)","Total_No_Of_Units":130,"No_Of_Units_Sold":7,"Avg_Unit_Rate":34473,"Date_Of_Information":"02/10/2021","Address":"西營盤皇后大道西160號","Status":"出售中","Developer":"富豪酒店集團"},"geometry":{"type":"Point","coordinates":[114.14502829313278,22.28672565965641]}},{"type":"Feature","properties":{"type":"drawing-graphic","New_Property_Name":"尚悅．天城 (The Hampstead Reach)","Total_No_Of_Units":16,"No_Of_Units_Sold":13,"First_Sales_Date":"09/03/2021","Avg_Unit_Rate":14283,"Date_Of_Information":"02/10/2021","Address":"唐人新村屏健里8號","Status":"出售中","Developer":"恒基兆業"},"geometry":{"type":"Point","coordinates":[114.01434570550919,22.439970213837302]}},{"type":"Feature","properties":{"type":"drawing-graphic","New_Property_Name":"瀚名 (10 LaSalle)","Total_No_Of_Units":73,"No_Of_Units_Sold":3,"First_Sales_Date":"01/03/2021","Avg_Unit_Rate":32347,"Date_Of_Information":"02/10/2021","Address":"何文田喇沙利道10號","Status":"出售中","Developer":"嘉里建設"},"geometry":{"type":"Point","coordinates":[114.18218091130257,22.326942456371615]}},{"type":"Feature","properties":{"type":"drawing-graphic","New_Property_Name":"Monaco - Grande Monaco","Total_No_Of_Units":247,"No_Of_Units_Sold":226,"First_Sales_Date":"27/02/2021","Date_Of_Information":"02/10/2021","Address":"啟德沐泰街12號","Status":"出售中","Developer":"會德豐","Avg_Unit_Rate":25632},"geometry":{"type":"Point","coordinates":[114.20001894235611,22.327183125480826]}},{"type":"Feature","properties":{"Address":"啟德沐泰街12號","Status":"出售中","Developer":"會德豐","Date_Of_Information":"02/10/2021","First_Sales_Date":"17/01/2021","Total_No_Of_Units":399,"New_Property_Name":"Monaco 第1期 (Monaco Phase 1)","type":"drawing-graphic","No_Of_Units_Sold":378,"Avg_Unit_Rate":24746},"geometry":{"type":"Point","coordinates":[114.20058220624924,22.32629860243534]}},{"type":"Feature","properties":{"type":"drawing-graphic","New_Property_Name":"安峯 (Mount Anderson)","Total_No_Of_Units":334,"No_Of_Units_Sold":3,"First_Sales_Date":"23/02/2021","Avg_Unit_Rate":21997,"Date_Of_Information":"02/10/2021","Address":"觀塘北部","Status":"出售中","Developer":"華懋集團"},"geometry":{"type":"Point","coordinates":[114.23337757587433,22.328675512800846]}},{"type":"Feature","properties":{"type":"drawing-graphic","New_Property_Name":"21 Borrett Road 第1期","Total_No_Of_Units":115,"No_Of_Units_Sold":18,"First_Sales_Date":"13/02/2021","Avg_Unit_Rate":89096,"Date_Of_Information":"02/10/2021","Address":"半山區西部波老道21號","Status":"出售中","Developer":"長江實業"},"geometry":{"type":"Point","coordinates":[114.16384130716324,22.272799973578323]}},{"type":"Feature","properties":{"type":"drawing-graphic","New_Property_Name":"帝御．嵐天 (Skypoint Royale) (帝御第3期)","Total_No_Of_Units":557,"No_Of_Units_Sold":539,"First_Sales_Date":"06/02/2021","Avg_Unit_Rate":15998,"Date_Of_Information":"02/10/2021","Address":"屯門青山公路青山灣段8號","Status":"出售中","Developer":"帝國集團 / 香港小輪"},"geometry":{"type":"Point","coordinates":[113.99091392755508,22.374482666701724]}},{"type":"Feature","properties":{"type":"drawing-graphic","New_Property_Name":"Silversands","Total_No_Of_Units":160,"No_Of_Units_Sold":94,"First_Sales_Date":"30/01/2021","Avg_Unit_Rate":21891,"Date_Of_Information":"02/10/2021","Address":"馬鞍山耀沙路8號","Status":"出售中","Developer":"信和置業"},"geometry":{"type":"Point","coordinates":[114.24409434199333,22.43383861443748]}},{"type":"Feature","properties":{"type":"drawing-graphic","New_Property_Name":"77/79 Peak Road","Total_No_Of_Units":8,"No_Of_Units_Sold":7,"First_Sales_Date":"29/01/2021","Avg_Unit_Rate":80114,"Date_Of_Information":"02/10/2021","Address":"山頂道 77,79,79A號","Status":"出售中","Developer":"九龍倉"},"geometry":{"type":"Point","coordinates":[114.15415719151495,22.26464545391417]}},{"type":"Feature","properties":{"type":"drawing-graphic","New_Property_Name":"LP10","Total_No_Of_Units":893,"No_Of_Units_Sold":533,"First_Sales_Date":"23/01/2021","Avg_Unit_Rate":16337,"Date_Of_Information":"02/10/2021","Address":"將軍澳康城路1號","Status":"出售中","Developer":"南豐集團 / 港鐵"},"geometry":{"type":"Point","coordinates":[114.26755025982857,22.292657755618407]}},{"type":"Feature","properties":{"type":"drawing-graphic","New_Property_Name":"薈藍 (The Met. Azure)","Total_No_Of_Units":320,"No_Of_Units_Sold":188,"First_Sales_Date":"14/08/2021","Avg_Unit_Rate":22594,"Date_Of_Information":"02/10/2021","Address":"青衣寮肚路8號","Status":"出售中","Developer":"宏安地產"},"geometry":{"type":"Point","coordinates":[114.09667745232582,22.3576182170713]}},{"type":"Feature","properties":{"Date_Of_Information":"29/07/2021","type":"drawing-graphic","New_Property_Name":"柏傲莊 II (The Pavilia Farm II)","Total_No_Of_Units":1415,"No_Of_Units_Sold":1405,"Avg_Unit_Rate":21618,"First_Sales_Date":"07/11/2020","Address":"沙田車公廟路18號","Status":"出售中","Developer":"新世界 / 港鐵"},"geometry":{"type":"Point","coordinates":[114.17897835373878,22.372424948641935]}},{"type":"Feature","properties":{"type":"drawing-graphic","New_Property_Name":"芳菲 (Madera Garden)","Total_No_Of_Units":71,"No_Of_Units_Sold":2,"First_Sales_Date":"31/07/2021","Avg_Unit_Rate":24365,"Date_Of_Information":"03/10/2021","Address":"何文田勝利道5號","Status":"出售中","Developer":"協成行"},"geometry":{"type":"Point","coordinates":[114.17436059564352,22.31925602342916]}},{"type":"Feature","properties":{"type":"drawing-graphic","New_Property_Name":"維港滙 II (Grand Victoria II)","Total_No_Of_Units":525,"No_Of_Units_Sold":20,"First_Sales_Date":"01/08/2021","Avg_Unit_Rate":29674,"Date_Of_Information":"03/10/2021","Address":"西南九龍荔盈街6號及荔盈街8號","Status":"出售中","Developer":"會德豐 / 信和置業 / 嘉華國際 / 世茂 / 爪哇集團"},"geometry":{"type":"Point","coordinates":[114.1484336927533,22.327446434378594]}},{"type":"Feature","properties":{"type":"drawing-graphic","New_Property_Name":"上嵐 (SkyeHi)","Total_No_Of_Units":112,"No_Of_Units_Sold":42,"First_Sales_Date":"25/07/2021","Avg_Unit_Rate":19077,"Date_Of_Information":"03/10/2021","Address":"屯門景秀里2號","Status":"出售中","Developer":"建灝地產"},"geometry":{"type":"Point","coordinates":[113.98229666054249,22.40565413188956]}},{"type":"Feature","properties":{"New_Property_Name":"Wetland Seasons Bay 第1期","type":"drawing-graphic","Total_No_Of_Units":1224,"No_Of_Units_Sold":881,"First_Sales_Date":"21/08/2021","Avg_Unit_Rate":16151,"Date_Of_Information":"03/10/2021","Address":"天水圍濕地公園路1號","Status":"出售中","Developer":"新鴻基"},"geometry":{"type":"Point","coordinates":[114.00327622890472,22.470331054433718]}},{"type":"Feature","properties":{"type":"drawing-graphic","New_Property_Name":"The Henley III","Total_No_Of_Units":404,"No_Of_Units_Sold":73,"First_Sales_Date":"04/09/2021","Date_Of_Information":"04/10/2021","Address":"啟德沐泰街7號","Status":"出售中","Developer":"恒基兆業","Avg_Unit_Rate":27515},"geometry":{"type":"Point","coordinates":[114.19779673218727,22.327144668073718]}}]}